{"KOI":[],"Local Coffee People":[{"title":"120\nRobinson Road","address":"120 Robinson Road #02-01\nSingapore 068913","openingHours":"Monday – Friday\n7:30am – 4:30pm\n(Last order @ 4:00pm)\nClosed on Saturday, Sunday and Public Holiday","phone":"–","chain":"Local Coffee People","location":{"type":"Point","coordinates":[103.848684034738,1.27907635162327]}},{"title":"CIMB\nPlaza","address":"30 Raffles Place #B1-18\nSingapore 048622","openingHours":"Monday – Friday\n7:30am – 4:30pm\n(Last order @ 4:00pm)\nClosed on Saturday, Sunday and Public Holiday","phone":"+65 9755 7690","chain":"Local Coffee People","location":{"type":"Point","coordinates":[103.851954013719,1.28419337002984]}},{"title":"International\nPlaza","address":"10 Anson Road #01-55\nSingapore 079903","openingHours":"Monday – Friday\n7:30am – 4:30pm\n(Last order @ 4:00pm)\nClosed on Saturday, Sunday and Public Holiday","phone":"+65 9654 8026","chain":"Local Coffee People","location":{"type":"Point","coordinates":[103.845955084997,1.27581120588262]}},{"title":"The\nSail","address":"2 Marina Boulevard #B1-08\nSingapore 018987","openingHours":"Monday – Friday\n7:30am – 4:30pm\n(Last order @ 4:00pm)\nClosed on Saturday, Sunday and Public Holiday","phone":"+65 9665 8724","chain":"Local Coffee People","location":{"type":"Point","coordinates":[103.852658562152,1.28076943476846]}},{"title":"Capital\nSquare 3","address":"25 Church Street #01-08\nSingapore 049482","openingHours":"Monday – Friday\n7:30am – 4:30pm\n(Last order @ 4:00pm)\nClosed on Saturday, Sunday and Public Holiday","phone":"+65 8123 7022","chain":"Local Coffee People","location":{"type":"Point","coordinates":[103.848483585631,1.28386126899928]}},{"title":"Income\n@ Raffles","address":"16 Collyer Quay #01-14\nSingapore 049318","openingHours":"Monday – Friday\n7:30am – 4:30pm\n(Last order @ 4:00pm)\nClosed on Saturday, Sunday and Public Holiday","phone":"+65 9012 9459","chain":"Local Coffee People","location":{"type":"Point","coordinates":[103.852502853417,1.28424248541962]}},{"title":"Republic\nPlaza","address":"9 Raffles Place #B1-03\nSingapore 048619","openingHours":"Monday – Friday\n7:30am – 4:30pm\n(Last order @ 4:00pm)\nClosed on Saturday, Sunday and Public Holiday","phone":"#65 9755 4275","chain":"Local Coffee People","location":{"type":"Point","coordinates":[103.850848813815,1.2828873744144]}}],"Ya Kun":[],"ChiCha":[{"title":"CHICHA SAN CHEN COMPASS ONE","address":"1 Sengkang Square, Compass One, #B1-10 Singapore 528833","openingHours":"11.00am - 9.30pm","phone":"","chain":"ChiCha","location":{"type":"Point","coordinates":[103.953050756306,1.34269199750599]}},{"title":"CHICHA SAN CHEN NORTHPOINT CITY","address":"930 Yishun Ave 2, #B2-01, North Wing, Northpoint City, Singapore 768019","openingHours":"11.00am - 9.30pm","phone":"","chain":"ChiCha","location":{"type":"Point","coordinates":[103.836419992398,1.42822560922688]}},{"title":"CHICHA SAN CHEN NEX","address":"23 Serangoon Central, #02-13A, NEX, Singapore 556083","openingHours":"Sun - Thu 11.00am - 9:15pm; Fri - Sat 11:00am - 9:30pm","phone":"","chain":"ChiCha","location":{"type":"Point","coordinates":[103.872590477492,1.35064579494756]}},{"title":"CHICHA SAN CHEN SUN PLAZA","address":"30 Sembawang Dr, #01-06 Sun Plaza, Singapore 757713","openingHours":"11.00am - 9.30pm","phone":"","chain":"ChiCha","location":{"type":"Point","coordinates":[103.819530140823,1.44820036592783]}},{"title":"CHICHA SAN CHEN WATERWAY POINT","address":"83 Punggol Central, #01-42 Waterway Point, Singapore 828761","openingHours":"11.00am - 9.30pm","phone":"","chain":"ChiCha","location":{"type":"Point","coordinates":[103.902188891645,1.4064128346795]}},{"title":"CHICHA SAN CHEN WOODLANDS MRT","address":"Woodlands Drive 50, Avenue 2,#01-33 Singapore 738343","openingHours":"11.00am - 9.30pm","phone":"","chain":"ChiCha","location":{"type":"Point","coordinates":[103.785325969402,1.43681436169078]}},{"title":"CHICHA SAN CHEN WOODLEIGH MALL","address":"11 Bidadari Park Drive, #01-32 The Woodleigh Mall, Singapore 367803","openingHours":"Sun","phone":"","chain":"ChiCha","location":{"type":"Point","coordinates":[103.871750105256,1.33869419209869]}},{"title":"CHICHA SAN CHEN 313@SOMERSET","address":"313 Orchard Road, #03-41, 313@somerset, Singapore 238895","openingHours":"11.00am - 9.30pm","phone":"","chain":"ChiCha","location":{"type":"Point","coordinates":[103.838360664485,1.30101436404056]}},{"title":"CHICHA SAN CHEN ANG MO KIO HUB","address":"53 Ang Mo Kio Ave 3, #B1-65A/65B, Singapore 569933","openingHours":"11.00am - 9.30pm","phone":"","chain":"ChiCha","location":{"type":"Point","coordinates":[103.848693181185,1.36923561405404]}},{"title":"CHICHA SAN CHEN CHINATOWN POINT","address":"133 New Bridge Road, #B1-50B, Singapore 059413","openingHours":"11.00am - 9.15pm","phone":"","chain":"ChiCha","location":{"type":"Point","coordinates":[103.844942912274,1.28518516098542]}},{"title":"CHICHA SAN CHEN CIMB PLAZA","address":"30 Raffles Place , #B1-20/21 CIMB Plaza, Singapore 048622","openingHours":"Mon - Tue 10.30am - 5.00pm; Wed - Fri","phone":"","chain":"ChiCha","location":{"type":"Point","coordinates":[103.851954013719,1.28419337002984]}},{"title":"CHICHA SAN CHEN KALLANG WAVE MALL","address":"1 Stadium Place, #01-52, Sports Hub Retail Mall Singapore 397628","openingHours":"11.00am - 9.00pm","phone":"","chain":"ChiCha","location":{"type":"Point","coordinates":[103.873044700613,1.30307157630397]}},{"title":"CHICHA SAN CHEN MARINA SQUARE","address":"6 Raffles Boulevard, #02-208, Singapore 039594","openingHours":"Sun -","phone":"","chain":"ChiCha","location":{"type":"Point","coordinates":[103.857647591675,1.29098168416984]}},{"title":"CHICHA SAN CHEN PLAZA SINGAPURA","address":"68 Orchard Road, #B1-K7, Singapore 238839","openingHours":"Sun","phone":"","chain":"ChiCha","location":{"type":"Point","coordinates":[103.845072743164,1.30083413030923]}},{"title":"CHICHA SAN CHEN SUNTEC CITY","address":"No. 3, Temasek Boulevard, #B1-169 Fountain Court, Suntec City Mall, Singapore 038983","openingHours":"11.00am - 9.30pm","phone":"","chain":"ChiCha","location":{"type":"Point","coordinates":[103.858552585838,1.29571152468885]}},{"title":"CHICHA SAN CHEN TAKASHIMAYA S.C., NGEE ANN CITY","address":"391 Orchard Road , #B2-03 Takashimaya S.C., Ngee Ann City, Singapore 238872","openingHours":"Sun","phone":"","chain":"ChiCha","location":{"type":"Point","coordinates":[103.834980235031,1.30236932766648]}},{"title":"CHICHA SAN CHEN VELOCITY@NOVENA SQUARE","address":"238 Thomson Road, #01-07, Novena Square, Singapore 307685","openingHours":"10.30am - 9.00pm","phone":"","chain":"ChiCha","location":{"type":"Point","coordinates":[103.844148486307,1.31931071154948]}},{"title":"CHICHA SAN CHEN WHEELOCK PLACE","address":"501 Orchard Road, #B1-05,Singapore 238880","openingHours":"Sun","phone":"","chain":"ChiCha","location":{"type":"Point","coordinates":[103.830642027577,1.30467628730252]}},{"title":"CHICHA SAN CHEN BEDOK MALL","address":"311 New Upper Changi Road, Bedok Mall, #B2-24A, Singapore 467360","openingHours":"11.00am - 9.30pm","phone":"","chain":"ChiCha","location":{"type":"Point","coordinates":[103.929182068033,1.32479361283131]}},{"title":"CHICHA SAN CHEN JEWEL CHANGI AIRPORT","address":"78 Airport Boulevard,#B2-213 Jewel Changi Airport, Singapore 819666","openingHours":"11.00am - 9.30pm","phone":"","chain":"ChiCha","location":{"type":"Point","coordinates":[103.989457201894,1.36023106736765]}},{"title":"CHICHA SAN CHEN PAYA LEBAR QUARTER","address":"10 Paya Lebar Road, #02-27, Singapore 409057","openingHours":"11.00am - 9.30pm","phone":"","chain":"ChiCha","location":{"type":"Point","coordinates":[103.893414663597,1.31770886898996]}},{"title":"CHICHA SAN CHEN WHITE SANDS","address":"1 Pasir Ris Central 3, #01-39B, Singapore 518457","openingHours":"Sun","phone":"","chain":"ChiCha","location":{"type":"Point","coordinates":[103.949733905672,1.37228761596577]}},{"title":"CHICHA SAN CHEN TAMPINES 1","address":"10 Tampines Central 1, #B1-32, Singapore 529536","openingHours":"11.00am - 9.30pm","phone":"","chain":"ChiCha","location":{"type":"Point","coordinates":[103.945141172369,1.35432321225804]}},{"title":"CHICHA SAN CHEN HILLION MALL","address":"17 Petir Road, Hillion Mall,#B2-17 Singapore 678278","openingHours":"11.00am - 9.30pm","phone":"","chain":"ChiCha","location":{"type":"Point","coordinates":[103.76382945872,1.37841165144214]}},{"title":"CHICHA SAN CHEN JEM","address":"50 Jurong Gateway Road, #01-17, JEM, Singapore 608549","openingHours":"11:00am - 9.30pm","phone":"","chain":"ChiCha","location":{"type":"Point","coordinates":[103.743262234833,1.3325523295069]}},{"title":"CHICHA SAN CHEN JURONG POINT","address":"63 Jurong West Central 3,#03-32/33 Jurong Point, Singapore 648831","openingHours":"11.00am - 9.30pm","phone":"","chain":"ChiCha","location":{"type":"Point","coordinates":[103.699821137457,1.35110661918467]}},{"title":"CHICHA SAN CHEN NTU","address":"Fine Food @ South Spine Foodcourt, 50 Nanyang Avenue, Singapore 639798","openingHours":"Mon - Fri 11.00am - 7.30pm; Sat 11.00am - 1.30pm; Closed on Sun / PH","phone":"","chain":"ChiCha","location":{"type":"Point","coordinates":[103.682773793248,1.34382260860561]}},{"title":"CHICHA SAN CHEN LOT ONE","address":"21 Choa Chu Kang Ave 4, #01-05, Lot One Shoppers' Mall, Singapore 689812","openingHours":"11.00am - 9.30pm","phone":"","chain":"ChiCha","location":{"type":"Point","coordinates":[103.744950378814,1.38506836476439]}},{"title":"CHICHA SAN CHEN STAR VISTA","address":"1 Vista Exchange Green,#02-28B The Star Vista, Singapore 138617","openingHours":"Sun - Thu 11.00am - 9.00pm; Fri - Sat 11.00am - 9.30pm","phone":"","chain":"ChiCha","location":{"type":"Point","coordinates":[103.788462732266,1.30681500712523]}},{"title":"CHICHA SAN CHEN NUS","address":"1 Create Way, University Town - NUS, #01-04, Singapore 138608","openingHours":"11am - 7.30pm","phone":"","chain":"ChiCha","location":{"type":"Point","coordinates":[103.773230602745,1.30547903926184]}}],"Kopifellas":[{"title":"KOPIFELLAS @ Toa Payoh","address":"190 Lorong 6 Toa Payoh, #01-574, Singapore 310190","openingHours":"Operating hours: 0700 – 1630 | Daily","phone":"","chain":"Kopifellas","location":{"type":"Point","coordinates":[103.847965420815,1.33297562373531]}},{"title":"KOPIFELLAS @ Marina South","address":"5 Straits View, #B2-23, The Heart Marina One, Singapore 018935","openingHours":"Operating hours: 0730 – 1700 | Weekdays (Closed on Public Holidays)","phone":"","chain":"Kopifellas","location":{"type":"Point","coordinates":[103.852844801266,1.27737235072298]}},{"title":"KOPIFELLAS @ Raffles Place","address":"30 Raffles Place #B1-22, CIMB Plaza, Singapore 048622","openingHours":"Operating hours: 0700 – 1630 | Weekdays (Closed on Public Holidays)","phone":"","chain":"Kopifellas","location":{"type":"Point","coordinates":[103.851954013719,1.28419337002984]}},{"title":"KOPIFELLAS @ Tanjong Pagar","address":"10 Anson Rd, #01-11, International Plaza, Singapore 079903","openingHours":"Operating hours: 0730 – 1730 | Daily  (Closed on Saturday & Public Holidays)","phone":"","chain":"Kopifellas","location":{"type":"Point","coordinates":[103.845955084997,1.27581120588262]}},{"title":"KOPIFELLAS Cafe @ Bugis","address":"20 Tan Quee Lan Street, #01-09, Guoco Midtown 2, Singapore 188107","openingHours":"(COMING SOON!)","phone":"","chain":"Kopifellas","location":{"type":"Point","coordinates":[103.856975770361,1.29877682263527]}},{"title":"KOPIFELLAS Express @ Aljunied","address":"440 Geylang Rd, Fellascube, Singapore 389400","openingHours":"Operating hours: 0700 – 2230 | Daily","phone":"","chain":"Kopifellas","location":{"type":"Point","coordinates":[103.883398822558,1.31320363274175]}},{"title":"NOODLEFELLAS @ Aljunied","address":"440 Geylang Rd, Fellascube, Singapore 389400","openingHours":"Operating hours: 0700 – 1545 | Daily","phone":"","chain":"Kopifellas","location":{"type":"Point","coordinates":[103.883398822558,1.31320363274175]}},{"title":"FELLASCUBE @ Aljunied","address":"440 Geylang Rd, Fellascube, Singapore 389400","openingHours":"Operating hours: 0700 – 2230 | Daily (Tenant’s operating hours may vary)","phone":"","chain":"Kopifellas","location":{"type":"Point","coordinates":[103.883398822558,1.31320363274175]}},{"title":"KOPIFELLAS @ Expo","address":"1 Expo Drive, #01-130, Singapore 486150","openingHours":"Operating hours: 0900 – 2130 | Daily","phone":"","chain":"Kopifellas","location":{"type":"Point","coordinates":[103.960988706454,1.33559509073581]}},{"title":"KOPIFELLAS Cafe @ Pasir Ris","address":"7 Pasir Ris Central, #02-59, Pasir Ris Mall, Singapore 519612","openingHours":"Operating hours: 0800 – 2000 | Daily","phone":"","chain":"Kopifellas","location":{"type":"Point","coordinates":[103.948748873616,1.37382437779468]}},{"title":"KOPIFELLAS Cafe @ Tampines","address":"1 Tampines Walk, #01-106, Our Tampines Hub, Singapore 528523","openingHours":"Operating hours: 0800 – 2000 | Daily","phone":"","chain":"Kopifellas","location":{"type":"Point","coordinates":[103.940598001519,1.35218046898785]}},{"title":"KOPIFELLAS Cafe @ Punggol","address":"88 Punggol Way, Provisional Unit #02-133, Punggol Coast Mall, Tower 7, Singapore 829913","openingHours":"(COMING SOON!)","phone":"","chain":"Kopifellas","location":{"type":"Point","coordinates":[103.910614292409,1.41477353491381]}},{"title":"KOPIFELLAS Cafe @ Downtown East","address":"1 Pasir Ris Close, #01-403, D’marquee @ Downtown East, Singapore 519599","openingHours":"","phone":"","chain":"Kopifellas","location":{"type":"Point","coordinates":[103.955689449482,1.3765903645695]}},{"title":"KOPIFELLAS Express @ one-north","address":"73A Ayer Rajah Crescent, #01-07, Timbre+ one-north, Singapore 139957","openingHours":"Operating hours: 0600 – 1930 | Weekdays (Closed on Public Holidays)","phone":"","chain":"Kopifellas","location":{"type":"Point","coordinates":[103.787526314396,1.29741124785598]}},{"title":"KOPIFELLAS Express @ Beauty World","address":"144 Upper Bukit Timah Rd, #04-49, Beauty World Centre, Singapore 588177","openingHours":"Operating hours: 0730 – 1700 | Daily (Closed on Wednesdays)","phone":"","chain":"Kopifellas","location":{"type":"Point","coordinates":[103.776539385406,1.34241264188642]}},{"title":"KOPIFELLAS @ National University of Singapore (NUS)","address":"11 Research Link, The Terrace @ COM3, Singapore 169931","openingHours":"Operating hours: 0800-1900 | Weekdays  |  0900 – 1800 | Saturday (Closed on Public Holidays)","phone":"","chain":"Kopifellas","location":null},{"title":"KOPIFELLAS @ Science Park","address":"87 Science Park Drive, #01-04, Oasis, Singapore Science Park 1, Singapore 118260","openingHours":"Operating hours: 0730 – 1700 | Daily","phone":"","chain":"Kopifellas","location":{"type":"Point","coordinates":[103.790369856119,1.28774358639098]}},{"title":"KOPIFELLAS Cafe @ Alexandra","address":"438C Alexandra Road, #01-05/05A, Alexandra Technopark C, Singapore 119976","openingHours":"Operating hours: 0730 – 1700 | Weekdays (Closed on weekends & Public Holidays)","phone":"","chain":"Kopifellas","location":{"type":"Point","coordinates":[103.800215758536,1.27749904086527]}},{"title":"KOPIFELLAS @ Fusionopolis","address":"1 Fusionopolis Way, #02-13, Connexis, Singapore 138632","openingHours":"Operating hours: 0730 – 1700 | Weekdays (Closed on weekends & Public Holidays)","phone":"","chain":"Kopifellas","location":{"type":"Point","coordinates":[103.787640882653,1.2995985718601]}},{"title":"KOPIFELLAS @ Dairy Farm","address":"4 Dairy Farm Lane, #01-12, Dairy Farm Mall, Singapore 677622","openingHours":"Operating hours: 0930-2000 | Weekdays  |  0830 – 2030 | Weekends","phone":"","chain":"Kopifellas","location":{"type":"Point","coordinates":[103.77504908361,1.3655707838852]}},{"title":"KOPIFELLAS Cafe @ Tengah","address":"127 Plantation Cres, #02-01, Tengah Plantation Plaza, Singapore 690127","openingHours":"Operating hours: 0800-2000 | Weekdays  |  0800 – 1830 | Weekends and Public Holidays","phone":"","chain":"Kopifellas","location":{"type":"Point","coordinates":[103.734174851203,1.35759319436135]}},{"title":"NOODLEFELLAS @ Yishun","address":"6 Yishun Industrial Street 1, Stall 4, #01-01/02, North View Bizhub, Singapore 768090","openingHours":"Operating hours: 0730 – 1500 | Weekdays (Closed on weekends & Public Holidays)","phone":"","chain":"Kopifellas","location":{"type":"Point","coordinates":[103.843618912685,1.43678096741344]}},{"title":"KOPIFELLAS @ KidZania Singapore","address":"31 Beach View #01-01/02, A-04, KidZania Singapore @ Sentosa, Singapore 098008","openingHours":"Operating hours: 0900 – 1800 | Daily","phone":"","chain":"Kopifellas","location":{"type":"Point","coordinates":[103.820751565199,1.25166196562472]}}],"Playmade":[{"title":"Singapore","openingHours":"11am - 10pm (Daily)","phone":"+65 9826 4507","address":"313 Orchard Rd, #B3- 08, Singapore 238895","chain":"Playmade","location":{"type":"Point","coordinates":[103.838360664485,1.30101436404056]}},{"title":"Ang Mo Kio Hu (Playground)","openingHours":"11am - 10pm (Weekdays), 10.30am - 10pm (Weekends)","phone":"+65 9784 5361","address":"53 Ang Mo Kio Avenue 3, #B1- 51B, Singapore 569933","chain":"Playmade","location":{"type":"Point","coordinates":[103.848693181185,1.36923561405404]}},{"title":"Bukit Panjang Plaza","openingHours":"11am - 10pm (Weekdays), 10.30am - 10pm (Weekends)","phone":"+65 8017 6445","address":"1 Jeleu Rd, #01-17, Plaza, Singapore 677743","chain":"Playmade","location":{"type":"Point","coordinates":[103.764459887796,1.37989494369864]}},{"title":"Buona Vista MRT Station","openingHours":"11am - 10pm (Weekdays), 10.30am - 10pm (Weekends)","phone":"+65 9863 6981","address":"100 North Buona Vista Road, #01-08, Singapore 139345 ","chain":"Playmade","location":{"type":"Point","coordinates":[103.788696211509,1.30768350227128]}},{"title":"City Square Mall","openingHours":"11am - 10pm (Daily)","phone":"+65 8836 3318","address":"180 Kitchener Road, #B2-K10 City Square Mall, Singapore 208539 ","chain":"Playmade","location":{"type":"Point","coordinates":[103.856724057693,1.31135169933195]}},{"title":"Depot Heights Shopping Centre","openingHours":"11am - 8pm (Weekdays), 10.30am - 8pm (Weekends)","phone":"+65 6253 9252","address":"108 Depot Road, #01-03, Singapore 100108 ","chain":"Playmade","location":{"type":"Point","coordinates":[103.810298189643,1.28096680702384]}},{"title":"Hougang Mall","openingHours":"11am - 10pm (Weekdays), 10.30am - 10pm (Weekends)","phone":"+65 6214 9134","address":"90 Hougang Ave 10, #01-25, Singapore 538766 ","chain":"Playmade","location":{"type":"Point","coordinates":[103.893788141349,1.37248308734511]}},{"title":"Jurong Point","openingHours":"11am - 10pm (Weekdays), 10.30am - 10pm (Weekends)","phone":"+65 9819 8657","address":"1 Jurong West Central 2, #B1-36A, Singapore 648886","chain":"Playmade","location":{"type":"Point","coordinates":[103.706685012654,1.33945200436319]}},{"title":"Marina Bay Link Mall","openingHours":"11am - 6.30pm (Weekdays & Pulic Holidays Eve), Closed (Weekends & Pulic Holidays)","phone":"+65 8819 0474","address":"8A Marina Boulevard, #B2-43, Singapore 018984 ","chain":"Playmade","location":{"type":"Point","coordinates":[103.854773147641,1.27992126239604]}},{"title":"Nex Shopping Mall","openingHours":"11am - 10pm (Weekdays), 10.30am - 10pm (Weekends)","phone":"+65 6509 8727","address":"23 Serangoon Central, #04-17, Singapore 556083 ","chain":"Playmade","location":{"type":"Point","coordinates":[103.872590477492,1.35064579494756]}},{"title":"Northpoint City","openingHours":"11am - 10pm (Weekdays), 10.30am - 10pm (Weekends)","phone":"+65 6970 4739","address":"1 Northpoint Drive, South Wing of Northpoint City, #01-154,  Singapore 768019","chain":"Playmade","location":{"type":"Point","coordinates":[103.836419992398,1.42822560922688]}},{"title":"Northshore Plaza II","openingHours":"11am - 10pm (Weekdays), 10.30am - 10pm (Weekends)","phone":"+65 80786705","address":"418 Northshore Drive, #03-02,  Singapore 820418","chain":"Playmade","location":{"type":"Point","coordinates":[103.901321830086,1.41796143093751]}},{"title":"PLQ Mall","openingHours":"11am - 10pm (Daily)","phone":"+65 6502 7856","address":"10 Paya Lear Rd, #B2-K5, Singapore 409057","chain":"Playmade","location":{"type":"Point","coordinates":[103.893414663597,1.31770886898996]}},{"title":"Seletar Mall (Playground)","openingHours":"11am - 10pm (Weekdays), 10.30am - 10pm (Weekends)","phone":"+65 9826 7642","address":"33 Sengkang West Avenue, #03-K3, The Seletar Mall, Singapore 797653 ","chain":"Playmade","location":{"type":"Point","coordinates":[103.876213231014,1.39131549124709]}},{"title":"Sengkang Grand Mall","openingHours":"11am - 10pm (Weekdays), 10.30am - 10pm (Weekends)","phone":"+65 8804 3240","address":"70 Compassavale Bow, #01-67, Singapore 544692 ","chain":"Playmade","location":{"type":"Point","coordinates":[103.892318220824,1.38381228170133]}},{"title":"Suntec City (Playground)","openingHours":"11am - 10pm (Sunday - Thursday), 11am - 10.30pm (Friday - Saturday)","phone":"+65 9139 3419","address":"3 Temasek Blvd, #B1-151 Suntec City, North Tower, Singapore 038983","chain":"Playmade","location":{"type":"Point","coordinates":[103.858552585838,1.29571152468885]}},{"title":"Tampines 1","openingHours":"11am - 10pm (Weekdays), 10.30am - 10pm (Weekends)","phone":"+65 6509 9693","address":"10 Tampines Central 1, #01-59, Singapore 529536","chain":"Playmade","location":{"type":"Point","coordinates":[103.945141172369,1.35432321225804]}},{"title":"The Clementi Mall","openingHours":"11am - 10pm (Daily)","phone":"+65 8092 8102","address":"3155 Commonwealth Ave W #04-K4 , Singapore 129588 ","chain":"Playmade","location":{"type":"Point","coordinates":[103.764596439304,1.31555354277949]}},{"title":"Tiong Bahru Plaza","openingHours":"11am - 10pm (Weekdays), 10.30am - 10pm (Weekends)","phone":"+65 6261 0787","address":"302 Tiong Bahru Rd, #01-154, Singapore 168732 ","chain":"Playmade","location":{"type":"Point","coordinates":[103.827550771424,1.28633177192832]}},{"title":"Toa Payoh Central","openingHours":"11am - 10pm (Daily), 10.30am - 10pm (Weekends)","phone":"+65 8934 6869","address":"190 Lorong  6 Toa Payoh, #01-564B, Singapore 310190 ","chain":"Playmade","location":{"type":"Point","coordinates":[103.847965420815,1.33297562373531]}},{"title":"Velocity@Novena Square","openingHours":"11am - 10pm (Weekdays), 10.30am - 10pm (Weekends)","phone":"+65 89312979","address":"238 Thomson Road, #02-52 Velocity @ Novena Square,  Singapore 307683","chain":"Playmade","location":{"type":"Point","coordinates":[103.843656761867,1.32021100706836]}},{"title":"Vivo City","openingHours":"11am - 10pm (Weekdays), 10.30am - 10pm (Weekends)","phone":"+65 9088 3712","address":"Vivo City, #02-118, 1 HarourFront Walk, Singapore 098585  ","chain":"Playmade","location":{"type":"Point","coordinates":[103.822476140505,1.26434458658544]}},{"title":"Waterway Point Shopping Centre","openingHours":"11am - 10pm (Weekdays), 10.30am - 10pm (Weekends)","phone":"+65 6242 9505","address":"83 Punggol Central, #B1-K6, Singapore 828761","chain":"Playmade","location":{"type":"Point","coordinates":[103.902188891645,1.4064128346795]}},{"title":"Westgate","openingHours":"11am - 10pm (Weekdays), 10.30am - 10pm (Weekends)","phone":"+65 6970 8939","address":"3 Gateway Dr, #01-K1, Singapore 608532","chain":"Playmade","location":{"type":"Point","coordinates":[103.742766489597,1.33415752008876]}},{"title":"Wisteria Mall","openingHours":"11am - 10pm (Weekdays), 10.30am - 10pm (Weekends)","phone":"+65 8900 9193","address":"598 Yishun Ring Rd, #01-24, Singapore 768698","chain":"Playmade","location":{"type":"Point","coordinates":[103.841317292608,1.41798969122298]}},{"title":"Malaysia","openingHours":"10.30am - 9.30pm (Weekdays), 10.30am - 9.30pm (Weekends)","phone":"03-8959 8948","address":"LG-76A, IOI City Mall, 62502 Putrajaya, Selangor, Malaysia","chain":"Playmade","location":{"type":"Point","coordinates":[103.910155292794,1.32414194842037]}},{"title":"IOI Mall Puchong","openingHours":"10.30am - 9.30pm (Weekdays), 10.30am - 9.30pm (Weekends)","phone":"03-5888 9132","address":"EF23A, First Floor, IOI Mall Puchong, Jalan Puchong, Bandar Puchong Jaya, 47170 Puchong, Selangor Darul Ehsan","chain":"Playmade","location":{"type":"Point","coordinates":[103.93993380532,1.35528065111508]}},{"title":"Sunway Pyramid Mall","openingHours":"10am - 10pm (Daily)","phone":"+6012-753 7388","address":"F1.91C, First Floor, No. 3, Jalan PJS 11/15, Sunway City, 47500 Selangor Darul Ehsa","chain":"Playmade","location":{"type":"Point","coordinates":[103.93993380532,1.35528065111508]}},{"title":"Sunway Velocity","openingHours":"10.30am - 9.30pm (Weekdays), 10.30am - 9.30pm (Weekends)","phone":"03-9202 1556","address":"3-37 Lingkaran SV2, Sunway Velocity, 55100 Kuala Lumpur, Wilayah Persekutuan Kuala Lumpur","chain":"Playmade","location":{"type":"Point","coordinates":[103.768533644818,1.3594248176195]}}],"Gong Cha":[{"title":"313 Somerset","address":"313 Orchard Road  #02-50, Singapore 238895","openingHours":"Mon - Sun 11am - 9pm","phone":"","chain":"Gong Cha","location":{"type":"Point","coordinates":[103.838360664485,1.30101436404056]}},{"title":"Bugis Junction","address":"Bugis Junction  #03-08, 200 Victoria Street , Singapore 188021","openingHours":"Mon - \n Thu 11.00am - 9.00pm \nFri - \n Sun 10.00am - 10.00pm \nPH - \n 10.00am - 10.00pm ","phone":"","chain":"Gong Cha","location":{"type":"Point","coordinates":[103.855450325604,1.2991371723215]}},{"title":"Causeway Point","address":"Causeway Point 1 Woodlands Square   #02-K10, Singapore 738099","openingHours":"Mon - \n Sun 10am - 10pm","phone":"","chain":"Gong Cha","location":{"type":"Point","coordinates":[103.785795816344,1.43590007901468]}},{"title":"Century Square","address":"2 Tampines Central 5  #01-39, Century Square, Singapore 529509","openingHours":"Mon - \n Sun 10am - 10pm","phone":"","chain":"Gong Cha","location":{"type":"Point","coordinates":[103.943849611798,1.35229139706407]}},{"title":"Changi Hospital","address":"6A Simei street 3, #01-03   Singapore , Singapore , 529905","openingHours":"Mon - \n Fri 10am - 6pm\nSat Closed\n\nSun Closed\n\nPH closed","phone":"","chain":"Gong Cha","location":{"type":"Point","coordinates":[103.948193352903,1.34131853771386]}},{"title":"Compass One","address":"Compass One  #02-40/41, Sengkang Square, Singapore 545078","openingHours":"Mon -Sun 10am - 10pm","phone":"","chain":"Gong Cha","location":{"type":"Point","coordinates":[103.895063884132,1.3920543053799]}},{"title":"Eunos MRT","address":"30 Eunos Crescent  #01-10, Eunos MRT Station, Singapore 409423","openingHours":"Mon - \n Sun 11am - 10pm","phone":"","chain":"Gong Cha","location":{"type":"Point","coordinates":[103.903645566693,1.31965992885645]}},{"title":"Great World","address":"1 Kim Seng Promenade  #B1-K104, Great World City, Singapore 237994","openingHours":"Mon - \n Fri 11am - 9pm \nSat - \n 10am - 10pm \nSun & PH - \n 10am - 9pm ","phone":"","chain":"Gong Cha","location":{"type":"Point","coordinates":[103.831975865363,1.2934759620704]}},{"title":"Hougang Mall","address":"Hougang Mall, 90 Hougang Ave 10   #B1-14/15, Singapore 538766","openingHours":"Mon - \nThu 11am - 10pm\nFri - \n Sun 10.00am - 10.00pm \n","phone":"","chain":"Gong Cha","location":{"type":"Point","coordinates":[103.893788141349,1.37248308734511]}},{"title":"i12 Katong","address":"112 East Coast Road  #B1-36, Singapore 428802","openingHours":"Mon - \nThu 11am - 9pm\nFri - \n Sun 10.00am - 10.00pm ","phone":"","chain":"Gong Cha","location":{"type":"Point","coordinates":[103.905046110228,1.30520653617341]}},{"title":"Lot One Shoppers' Mall","address":"21 Choa Chu Kang Ave 4   #04-18A, Singapore 689812","openingHours":"Mon - Sun 10am - 10pm","phone":"","chain":"Gong Cha","location":{"type":"Point","coordinates":[103.744950378814,1.38506836476439]}},{"title":"Millenia Walk","address":"9 Raffles Boulevard  #01-91A Millenia Walk, Singapore 039596","openingHours":"Mon - \nSun 12pm - 8pm\nPH - \n 12pm - 8pm ","phone":"","chain":"Gong Cha","location":{"type":"Point","coordinates":[103.859343968909,1.29296504146626]}},{"title":"NEX","address":"23 Serangoon Central  #B1-44, Singapore 556083","openingHours":"Mon - Sun 10am - 10pm","phone":"","chain":"Gong Cha","location":{"type":"Point","coordinates":[103.872590477492,1.35064579494756]}},{"title":"Northpoint","address":"930 Yishun Avenue 2  #01-06, North Wing of Northpoint City, Singapore 769098","openingHours":"Mon - \n Sun 10am - 10pm","phone":"","chain":"Gong Cha","location":{"type":"Point","coordinates":[103.836107231373,1.42924414326245]}},{"title":"NUS Science Canteen Frontier","address":"#K-5 3 Science Drive 2  Singapore, 117543","openingHours":"Mon - \n Fri 11am - 7pm\nSat - closed \nSun - closed\nPH - closed","phone":"","chain":"Gong Cha","location":{"type":"Point","coordinates":[103.780344910087,1.29678644340063]}},{"title":"NUS U-Town","address":"Stall 12, 2 College Ave West, Stephen Riady Centre,   #02-01, Singapore 138607","openingHours":"Mon - \nFri 11am - 7pm\nSat - \n Sun 11.00am - 6.00pm \nPH - \n 11.00am - 6.00pm ","phone":"","chain":"Gong Cha","location":{"type":"Point","coordinates":[103.772461624378,1.30479483284214]}},{"title":"Pasir Ris MRT","address":"10 Pasir Ris Central  #01-06, Pasir Ris MRT Station, Singapore 519634","openingHours":"Mon - \nThu 11am - 10pm\nFri - \n Sun 10.00am - 10.00pm \n","phone":"","chain":"Gong Cha","location":{"type":"Point","coordinates":[103.949265083922,1.37300805046319]}},{"title":"Senja","address":"Blk 642 Senja Rd  #01-06, Singapore 670642","openingHours":"Mon - \nThu 12pm - 9pm\nFri - \n Sun 12.00pm - 9.00pm ","phone":"","chain":"Gong Cha","location":{"type":"Point","coordinates":[103.761960181682,1.38712667134352]}},{"title":"Simei MRT","address":"30 Simei Street 3  #01-04, Simei MRT Station , Singapore 529888","openingHours":"Mon - Sun 11am - 10pm","phone":"","chain":"Gong Cha","location":{"type":"Point","coordinates":[103.95328573703,1.34320821107717]}},{"title":"Singapore University of Technology & Design  (SUTD)","address":"8 Somapah Road  #01-302, Singapore 487372","openingHours":"Mon - \n Fri 11.30am - 5.00pm\n Sat - Closed \n Sun - Closed \n PH - Closed ","phone":"","chain":"Gong Cha","location":{"type":"Point","coordinates":[103.962860116421,1.3401716369901]}},{"title":"SMU café 2.0","address":"50 Stamford Road  #01-01, Lee Kong Chian of Business, Singapore 178899","openingHours":" Mon - \nFri 11am - 7pm\n Sat - Closed \n Sun - Closed \n PH - Closed ","phone":"","chain":"Gong Cha","location":{"type":"Point","coordinates":[103.850566200283,1.29509045190873]}},{"title":"Tampines MRT","address":"20 Tampines Central 1   #01-30 Tampines MRT, Singapore, 529538","openingHours":"Mon - \nThu 11am - 10pm\nFri - \n Sun 10.00am - 10.00pm \n","phone":"","chain":"Gong Cha","location":{"type":"Point","coordinates":[103.945042729998,1.35369188683393]}},{"title":"Tan Tock Seng Hospital","address":"16 Jalan Tan Tock Seng  #B1-03, Tan Tock Seng Hospital, Singapore 308442","openingHours":"Mon - \n Fri 10am - 7pm\nSat,Sun & PH - Closed","phone":"","chain":"Gong Cha","location":{"type":"Point","coordinates":[103.847798216735,1.32139722330474]}},{"title":"Telok Ayer","address":"121 Telok Ayer Street  #01-01, Singapore 068590","openingHours":" Mon - \nFri 10am - 7pm\n Sat & Sun - Closed \n PH - Closed ","phone":"","chain":"Gong Cha","location":{"type":"Point","coordinates":[103.848139912125,1.28129867556401]}},{"title":"Toa Payoh","address":"Blk 190 Lorong 6   Toa Payoh #01-546, Singapore 310190","openingHours":"Mon -Sun 10am - 10pm","phone":"","chain":"Gong Cha","location":{"type":"Point","coordinates":[103.847965420815,1.33297562373531]}},{"title":"Westgate","address":"3 Gateway Drive  #02-49, Westgate, Singapore 608532","openingHours":"Mon - \nThu 11am - 9pm\nFri - \n Sat 10.00am - 10.00pm \nSun \n 10.00am - 9.00pm ","phone":"","chain":"Gong Cha","location":{"type":"Point","coordinates":[103.742766489597,1.33415752008876]}},{"title":"Woodlands MRT","address":"30 Woodlands  Avenue 2 #01-40, Woodlands MRT Station, Singapore 738343","openingHours":"Mon - \n Sun 10am - 10pm","phone":"","chain":"Gong Cha","location":{"type":"Point","coordinates":[103.785325969402,1.43681436169078]}}],"Mr Coconut":[{"title":"AMK HUB","address":"53 Ang Mo Kio Avenue 3 #B1-69/70/71 Singapore 569933","openingHours":"Mon – Sun : 10am – 9.45pm","phone":"","chain":"Mr Coconut","location":{"type":"Point","coordinates":[103.848693181185,1.36923561405404]}},{"title":"ANCHORPOINT","address":"370 Alexandra Road #B1-53/54 Singapore 159953","openingHours":"Mon – Sun : 11am – 8.45pm","phone":"","chain":"Mr Coconut","location":{"type":"Point","coordinates":[103.805009964592,1.28861469030586]}},{"title":"BEDOK MALL","address":"311 New Upper Changi Rd #01-K1 Singapore 467360","openingHours":"Mon – Sun : 10am – 9.45pm","phone":"","chain":"Mr Coconut","location":{"type":"Point","coordinates":[103.929182068033,1.32479361283131]}},{"title":"Boon Lay MRT","address":"301 Boon Lay Way #01-29 Singapore 649846","openingHours":"Mon – Sun : 10am – 9.45pm","phone":"","chain":"Mr Coconut","location":{"type":"Point","coordinates":[103.705927086646,1.33845148860404]}},{"title":"Bugis Street","address":"3 New Bugis Street #01-201 Singapore 188867","openingHours":"Mon – Sun : 10am – 9.45pm","phone":"","chain":"Mr Coconut","location":{"type":"Point","coordinates":[103.854903071386,1.30048327348075]}},{"title":"BUKIT BATOK MRT","address":"Bukit Batok Central, 10, #01-04A Singapore 659958","openingHours":"Mon – Sun : 10am – 9.45pm","phone":"","chain":"Mr Coconut","location":{"type":"Point","coordinates":[103.749334517338,1.3487108105756]}},{"title":"CAUSEWAY POINT","address":"1 Woodlands Square #B1-K02 Singapore 738099","openingHours":"Mon – Sun : 10am – 9.45pm","phone":"","chain":"Mr Coconut","location":{"type":"Point","coordinates":[103.785795816344,1.43590007901468]}},{"title":"Century square","address":"2 Tampines Central 5 #01-32A Singapore 529509","openingHours":"Mon – Sun : 10am – 9.45pm","phone":"","chain":"Mr Coconut","location":{"type":"Point","coordinates":[103.943849611798,1.35229139706407]}},{"title":"CHangi city point","address":"5 Changi Business Park Central 1, #01-K21 Changi City Point Singapore 486038","openingHours":"Mon – Sun : 11am – 9.45pm","phone":"","chain":"Mr Coconut","location":{"type":"Point","coordinates":[103.962946043413,1.33408363820793]}},{"title":"Chinatown point","address":"133 New Bridge Rd, #01-05 Singapore 059413","openingHours":"Mon – Sun : 10am – 9.45pm","phone":"","chain":"Mr Coconut","location":{"type":"Point","coordinates":[103.844942912274,1.28518516098542]}},{"title":"City square Mall","address":"180 Kitchener Road #B2-18A Singapore 208539","openingHours":"Mon – Sun : 10am – 9.45pm","phone":"","chain":"Mr Coconut","location":{"type":"Point","coordinates":[103.856724057693,1.31135169933195]}},{"title":"Clarke Quay Central","address":"6 Eu Tong Sen Street, The Central #01-37 Singapore 059817","openingHours":"Mon – Sun : 11am – 9.45pm","phone":"","chain":"Mr Coconut","location":{"type":"Point","coordinates":[103.846797382693,1.2888737988701]}},{"title":"CLEMENTI MALL","address":"3155 Commonwealth Ave W, #B1-K13 Singapore 129588","openingHours":"Mon – Sun : 10am – 9.45pm","phone":"","chain":"Mr Coconut","location":{"type":"Point","coordinates":[103.764596439304,1.31555354277949]}},{"title":"COMPASS ONE","address":"1 Sengkang Square#02-33 Singapore 545078","openingHours":"Mon – Sun : 10am – 9.45pm","phone":"","chain":"Mr Coconut","location":{"type":"Point","coordinates":[103.895063884132,1.3920543053799]}},{"title":"Downtown East E!avenue","address":"1 Pasir Ris Close #01-330 & #01-331 Singapore 519599","openingHours":"Mon – Sun : 11am – 9.45pm","phone":"","chain":"Mr Coconut","location":{"type":"Point","coordinates":[103.955689449482,1.3765903645695]}},{"title":"EASTPOINT MALL","address":"3 Simei Street 6 #01-03A Singapore 528833","openingHours":"Mon – Sun : 10am – 9.45pm","phone":"","chain":"Mr Coconut","location":{"type":"Point","coordinates":[103.953050756306,1.34269199750599]}},{"title":"EUNOS MRT","address":"30 Eunos Crescent #01-11 Singapore 409423","openingHours":"Mon – Sun : 10am – 8.45pm","phone":"","chain":"Mr Coconut","location":{"type":"Point","coordinates":[103.903645566693,1.31965992885645]}},{"title":"FAR EAST PLAZA","address":"14 Scotts Road #01-14C Singapore 228213","openingHours":"Mon – Sun : 11am – 9.45pm","phone":"","chain":"Mr Coconut","location":{"type":"Point","coordinates":[103.833818438639,1.30730468891062]}},{"title":"Fusionopolis One","address":"1 Fusionopolis Way, Connexis #B1-05 Singapore 138632","openingHours":"Mon – Fri: 10am – 7.45pm","phone":"","chain":"Mr Coconut","location":{"type":"Point","coordinates":[103.787640882653,1.2995985718601]}},{"title":"Great World City","address":"1 Kim Seng Promenade #B1-K115 Singapore 237994","openingHours":"Mon – Sun : 10.30am – 9.15pm","phone":"","chain":"Mr Coconut","location":{"type":"Point","coordinates":[103.831975865363,1.2934759620704]}},{"title":"Guoco Tower","address":"7 Wallich Street, #B2-01, Guoco TowerSingapore 078884","openingHours":"Mon – Sun : 10am – 8.45pm","phone":"","chain":"Mr Coconut","location":{"type":"Point","coordinates":[103.845155395387,1.27672492702287]}},{"title":"HeadQuarter","address":"15 Senoko Drive #05-09 JTC Food hubSingapore 758202","openingHours":"Telephone: +65 6980 6826","phone":"","chain":"Mr Coconut","location":{"type":"Point","coordinates":[103.798498510589,1.46065559995016]}},{"title":"Heartland Mall","address":"205 Hougang Street 21, #01-03, KovanSingapore 530205","openingHours":"Mon – Sun : 10am – 9.45pm","phone":"","chain":"Mr Coconut","location":{"type":"Point","coordinates":[103.885167372726,1.35954177325561]}},{"title":"Hillion Mall","address":"17 Petir Road #B2-35 Hillion Mall Singapore 678278","openingHours":"Mon – Sun : 10am – 9.45pm","phone":"","chain":"Mr Coconut","location":{"type":"Point","coordinates":[103.76382945872,1.37841165144214]}},{"title":"HOUGANG MALL","address":"90 Hougang Ave 10 #01-14 Singapore 538766","openingHours":"Mon – Sun : 10am – 9.45pm","phone":"","chain":"Mr Coconut","location":{"type":"Point","coordinates":[103.893788141349,1.37248308734511]}},{"title":"IMM","address":"2 Jurong East Street 21, #01-K05 Singapore 609601","openingHours":"Mon – Sun : 10am – 9.45pm","phone":"","chain":"Mr Coconut","location":{"type":"Point","coordinates":[103.746877132868,1.33491758755437]}},{"title":"JEWEL CHANGI AIRPORT","address":"78 Airport Boulevard #B2-268 Singapore 819666","openingHours":"Mon – Sun : 10.30am – 9.15pm","phone":"","chain":"Mr Coconut","location":{"type":"Point","coordinates":[103.989457201894,1.36023106736765]}},{"title":"JUNCTION 8","address":"9 Bishan Pl #B1-K6 Singapore 579837","openingHours":"Mon – Sun: 10am – 9.45pm","phone":"","chain":"Mr Coconut","location":{"type":"Point","coordinates":[103.848515664081,1.3501820033849]}},{"title":"Jurong Point","address":"1 Jurong West Central 2, #01-K1 Singapore 648886","openingHours":"Mon – Sun : 10am – 9.45pm","phone":"","chain":"Mr Coconut","location":{"type":"Point","coordinates":[103.706685012654,1.33945200436319]}},{"title":"NEX","address":"23 Serangoon Central #03-K16/17 Singapore 556083","openingHours":"Mon – Sun : 10.30am – 10.15pm","phone":"","chain":"Mr Coconut","location":{"type":"Point","coordinates":[103.872590477492,1.35064579494756]}},{"title":"NORTHPOINT CITY","address":"930 Yishun Avenue 2 #B1-42 Singapore 769098","openingHours":"Mon – Sun : 10am – 9.45pm","phone":"","chain":"Mr Coconut","location":{"type":"Point","coordinates":[103.836107231373,1.42924414326245]}},{"title":"Novena square","address":"238 Thomson Road #02-53A Singapore 307683","openingHours":"Mon – Sun : 10am – 8.45pm","phone":"","chain":"Mr Coconut","location":{"type":"Point","coordinates":[103.843656761867,1.32021100706836]}},{"title":"One Holland Village","address":"7 Holland Village Way #01-38 Singapore 275748","openingHours":"Mon – Sun: 11.00am - 9.45pm","phone":"","chain":"Mr Coconut","location":{"type":"Point","coordinates":[103.794145546471,1.31104916811064]}},{"title":"One Punggol Hub","address":"1 Punggol Drive #01-03 One Punggol Singapore 828629","openingHours":"Mon – Sun: 11.00am - 9.45pm","phone":"","chain":"Mr Coconut","location":{"type":"Point","coordinates":[103.905104199124,1.40829892495231]}},{"title":"ONE RAFFLES PLACE","address":"1 Raffles Place #B1-35 Singapore 048616","openingHours":"Mon – Fri: 10am – 7.45pm\nCLOSED ON SAT, SUN AND PH","phone":"","chain":"Mr Coconut","location":{"type":"Point","coordinates":[103.851050382307,1.28424656418639]}},{"title":"ORCHARD GATEWAY","address":"277 Orchard Road #01-02 Singapore 238858","openingHours":"Mon – Sun: 10am – 9.45pm","phone":"","chain":"Mr Coconut","location":{"type":"Point","coordinates":[103.839325098624,1.30048912114759]}},{"title":"PARKWAY PARADE","address":"80 Marine Parade Rd #B1-83J Singapore 449269","openingHours":"Mon – Sun : 11am – 9.45pm","phone":"","chain":"Mr Coconut","location":{"type":"Point","coordinates":[103.905339493587,1.30106068019409]}},{"title":"PAYA LEBAR QUARTER","address":"10 Paya Lebar Road #B2-K8Singapore 409057","openingHours":"Mon – Sun : 10am – 9.45pm","phone":"","chain":"Mr Coconut","location":{"type":"Point","coordinates":[103.893414663597,1.31770886898996]}},{"title":"PLAZA SINGAPURA","address":"68 Orchard Road #B2-48/49Singapore 238839","openingHours":"Mon – Sun : 10am – 9.45pm","phone":"","chain":"Mr Coconut","location":{"type":"Point","coordinates":[103.845072743164,1.30083413030923]}},{"title":"SENGKANG GRAND MALL","address":"70 Compassvale Bow #01-08 Singapore 544692","openingHours":"Mon – Sun : 11am – 9.45pm","phone":"","chain":"Mr Coconut","location":{"type":"Point","coordinates":[103.892318220824,1.38381228170133]}},{"title":"Plantation plaza","address":"127 PLantation Cres #02-17 Singapore 690127","openingHours":"Mon – Sun : 11am – 9.45pm","phone":"","chain":"Mr Coconut","location":{"type":"Point","coordinates":[103.734174851203,1.35759319436135]}},{"title":"Siloso Beach","address":"60 Siloso Beach Walk #01-02 Singapore 098997","openingHours":"Mon – Sun : 10.30am – 9.15pm","phone":"","chain":"Mr Coconut","location":{"type":"Point","coordinates":[103.817162874792,1.25170699462885]}},{"title":"SUNTEC CITY","address":"3 Temasek Boulevard #01-K3 Singapore 038983","openingHours":"Mon – Sun : 11am – 9.45pm","phone":"","chain":"Mr Coconut","location":{"type":"Point","coordinates":[103.858552585838,1.29571152468885]}},{"title":"Sun plaza","address":"30 Sembawang Drive #01-13 Singapore 757713","openingHours":"Mon – Sun : 10am – 9.45pm","phone":"","chain":"Mr Coconut","location":{"type":"Point","coordinates":[103.819530140823,1.44820036592783]}},{"title":"Tampines 1","address":"10 Tampines Central 1 #B1-K19 Singapore 529536","openingHours":"Mon – Sun : 10am – 9.45pm","phone":"","chain":"Mr Coconut","location":{"type":"Point","coordinates":[103.945141172369,1.35432321225804]}},{"title":"The Star Vista","address":"1 Vista Exchange Green #B1-37B Singapore 138617","openingHours":"Mon – Sun : 11am – 9.45pm","phone":"","chain":"Mr Coconut","location":{"type":"Point","coordinates":[103.788462732266,1.30681500712523]}},{"title":"The Seletar Mall","address":"33 Sengkang West Avenue #B1-22 Singapore 797653","openingHours":"Mon – Sun : 10am – 9.45pm","phone":"","chain":"Mr Coconut","location":{"type":"Point","coordinates":[103.876213231014,1.39131549124709]}},{"title":"The Woodleigh Mall","address":"11 Bidadari Park Drive #B1-K27 Singapore 367803","openingHours":"Mon – Sun : 10am – 9.45pm","phone":"","chain":"Mr Coconut","location":{"type":"Point","coordinates":[103.871750105256,1.33869419209869]}},{"title":"TOA PAYOH","address":"Blk 190, Toa Payoh Lorong 6, #01-562 Singapore 310190","openingHours":"Mon – Sun : 10am – 9.45pm","phone":"","chain":"Mr Coconut","location":{"type":"Point","coordinates":[103.847965420815,1.33297562373531]}},{"title":"Tiong Bahru Plaza","address":"302 Tiong Bahru Rd, #01-153 Singapore 168732","openingHours":"Mon – Sun : 10am – 9.45pm","phone":"","chain":"Mr Coconut","location":{"type":"Point","coordinates":[103.827550771424,1.28633177192832]}},{"title":"Vivo City","address":"1 HarbourFront Walk, #02-112 Singapore 098585","openingHours":"Mon – Sun : 10am – 9.45pm","phone":"","chain":"Mr Coconut","location":{"type":"Point","coordinates":[103.822476140505,1.26434458658544]}},{"title":"WATERWAY POINT","address":"83 Punggol Central #01-K7 Singapore 828761","openingHours":"Mon – Sun : 10am – 9.45pm","phone":"","chain":"Mr Coconut","location":{"type":"Point","coordinates":[103.902188891645,1.4064128346795]}},{"title":"WESTGATE","address":"3 Gateway Drive, #B2-K17 Singapore 608532","openingHours":"Mon – Sun : 10.30am – 9.15pm","phone":"","chain":"Mr Coconut","location":{"type":"Point","coordinates":[103.742766489597,1.33415752008876]}},{"title":"White Sands","address":"1 Pasir Ris Central St 3, #01-01 Singapore 518457","openingHours":"Mon – Sun : 10am – 9.45pm","phone":"","chain":"Mr Coconut","location":{"type":"Point","coordinates":[103.949733905672,1.37228761596577]}},{"title":"Wisma Orchard","address":"435 Orchard Road, Wisma Atria, #B1-49 Singapore 238877","openingHours":"Mon – Sun : 10am – 9.45pm","phone":"","chain":"Mr Coconut","location":{"type":"Point","coordinates":[103.833200970183,1.30370452023703]}},{"title":"Woodlands mrt station","address":"11 Woodlands Square, #B1-20 Woodlands MRT Station, Singapore 737736","openingHours":"Mon – Sun : 10.30am – 9.15pm","phone":"","chain":"Mr Coconut","location":{"type":"Point","coordinates":[103.787346991357,1.43659641685081]}},{"title":"Marine Parade mrt station","address":"101 Marine Parade Road, #B1-03 Marine Parade MRT Station, Singapore 449971","openingHours":"Mon – Sun : 11.00am - 9.45pm","phone":"","chain":"Mr Coconut","location":{"type":"Point","coordinates":[103.904727813023,1.30262288569836]}},{"title":"Changi Airport Terminal 3 (Public)","address":"65 Airport Boulevard #B2-30A Changi Airport Terminal 3 , Singapore 819663","openingHours":"Mon – Sun : 10.30am - 9.15pm","phone":"","chain":"Mr Coconut","location":{"type":"Point","coordinates":[103.985852088983,1.35556855805419]}},{"title":"Tengah Bus Interchange","address":"42A Tengah Boulevard #01-13, Tengah Bus Interchange, Singapore 699896","openingHours":"Mon – Sun : 11.00am - 8.45pm","phone":"","chain":"Mr Coconut","location":{"type":"Point","coordinates":[103.735002355192,1.36314647008944]}},{"title":"Punggol coast mall","address":"88 punggol way #02-130 punggol coast mall, Tower 7 Singapore 829913","openingHours":"Mon – Sun : 10.30am - 9.15pm","phone":"","chain":"Mr Coconut","location":{"type":"Point","coordinates":[103.910614292409,1.41477353491381]}}],"Each-A-Cup":[{"title":"Telok Blangah ","address":"Blk 78A Telok Blangah Street 32  #01-10  Singapore 101078","openingHours":"9:30am - 9:30pm (Monday to Sunday)","phone":"","chain":"Each-A-Cup","location":{"type":"Point","coordinates":[103.808952023637,1.27332805980948]}},{"title":"Dawson Road - 85","address":"Blk 85 Dawson Road  #01-03  Singapore 141085","openingHours":"10:00am - 9:30pm (Monday to Sunday)","phone":"","chain":"Each-A-Cup","location":{"type":"Point","coordinates":[103.809758591447,1.29531966312622]}},{"title":"Bukit Merah View - 116","address":"Blk 116 Bukit Merah View #01-245  Singapore 151116","openingHours":"10:00am - 9:00pm (Monday to Sunday)","phone":"","chain":"Each-A-Cup","location":{"type":"Point","coordinates":[103.821532226321,1.28513427067055]}},{"title":"ION Orchard","address":"2 Orchard Turn,  B4-69  Singapore 238801","openingHours":"10:00am - 9:00pm (Monday to Sunday)","phone":"","chain":"Each-A-Cup","location":{"type":"Point","coordinates":[103.831510144742,1.30419142102398]}},{"title":"Holland Village MRT","address":"200 Holland Ave #B1-12   Singapore 278995","openingHours":"10:00am - 10:00pm (Monday to Sunday)","phone":"","chain":"Each-A-Cup","location":{"type":"Point","coordinates":[103.796800676243,1.31244727745015]}},{"title":"Toa Payoh - 111","address":"Blk 111 Lorong 1 Toa Payoh,  #01-364 Singapore 310111","openingHours":"10:30am - 10:30pm daily","phone":"","chain":"Each-A-Cup","location":{"type":"Point","coordinates":[103.84549278032,1.34121955722461]}},{"title":"Toa Payoh - 177","address":"Blk 177 Toa Payoh Central  #01-154  Singapore 310177","openingHours":"10:00am - 10:00pm (Monday to Sunday)","phone":"","chain":"Each-A-Cup","location":{"type":"Point","coordinates":[103.848854818382,1.33390034057387]}},{"title":"The Poiz Centre           ","address":"51 Upper Serangoon Road  #01-10 The Poiz Centre Singapore 347697","openingHours":"10:00am - 10:00pm (Monday to Sunday)","phone":"","chain":"Each-A-Cup","location":{"type":"Point","coordinates":[103.868150095119,1.33135550782584]}},{"title":"Marsiling Rise - 132","address":"132 Marsiling Rise  #01-214  Singapore 730132","openingHours":"10:00am - 10:00pm","phone":"","chain":"Each-A-Cup","location":{"type":"Point","coordinates":[103.778025758394,1.43828189832914]}},{"title":"Woodlands 888","address":"888 Woodlands Drive 50  #01-747 888 Plaza  Singapore 730888","openingHours":"10:00am - 10:00pm","phone":"","chain":"Each-A-Cup","location":{"type":"Point","coordinates":[103.795314383823,1.43712301500434]}},{"title":"Woodlands South MRT","address":"30 Woodlands Drive 17 #B1-02 Woodlands South MRT Singapore 737741","openingHours":"11:00am - 10:00pm","phone":"","chain":"Each-A-Cup","location":{"type":"Point","coordinates":[103.793256604541,1.4276360165594]}},{"title":"Causeway Point","address":"1 Woodlands Square  #B1-K19  Singapore 738099","openingHours":"10:00am - 10:00pm","phone":"","chain":"Each-A-Cup","location":{"type":"Point","coordinates":[103.785795816344,1.43590007901468]}},{"title":"Serangoon North Ave 1 - 153","address":"153 Serangoon North Ave 1  #01-484  Singapore 550153","openingHours":"10:00am - 10:00pm","phone":"","chain":"Each-A-Cup","location":{"type":"Point","coordinates":[103.872312298412,1.36995099685808]}},{"title":"Ang Mo Kio - 448","address":"Blk 448 Ang Mo Kio Ave 10  #01-1707 Singapore 560448","openingHours":"10:00am - 10:00pm","phone":"","chain":"Each-A-Cup","location":{"type":"Point","coordinates":[103.856396604517,1.3674419012314]}},{"title":"AMK Hub","address":"53 Ang Mo Kio Avenue 3, #B2-32 AMK Hub Singapore 569933","openingHours":"10:00am - 10:00pm","phone":"","chain":"Each-A-Cup","location":{"type":"Point","coordinates":[103.848693181185,1.36923561405404]}},{"title":"Yishun Street 22 - 293","address":"Blk 293 Yishun Street 22 #01-249  Singapore 760293","openingHours":"10:30am - 9:30pm","phone":"","chain":"Each-A-Cup","location":{"type":"Point","coordinates":[103.837605235958,1.43611425409216]}},{"title":"Yishun - 417","address":"Blk 417 Yishun Ave11  #01-347  Singapore 760417","openingHours":"9:00am - 10:30pm","phone":"","chain":"Each-A-Cup","location":{"type":"Point","coordinates":[103.846329063065,1.4243850673899]}},{"title":"Wisteria Mall","address":"598 Yihsun Ring Road  #01-22  Singapore 768698","openingHours":"10:30am - 10:00pm","phone":"","chain":"Each-A-Cup","location":{"type":"Point","coordinates":[103.841317292608,1.41798969122298]}},{"title":"Hougang - 106","address":"Blk 106 Hougang Ave 1 #01-1229  Singapore 530106","openingHours":"10:00am - 10:00pm","phone":"","chain":"Each-A-Cup","location":{"type":"Point","coordinates":[103.890680792553,1.3537029714401]}},{"title":"Punggol Central 301                   ","address":"301 Punggol Central, #01-05 Singapore 820301","openingHours":"10:00am - 10:00pm","phone":"","chain":"Each-A-Cup","location":{"type":"Point","coordinates":[103.90627901541,1.40358047553376]}},{"title":"Punggol Drive - 612","address":"612 Punggol Drive #01-02  Singapore 820612","openingHours":"10:00am - 9:00pm","phone":"","chain":"Each-A-Cup","location":{"type":"Point","coordinates":[103.908665597763,1.40461003140363]}},{"title":"Sumang - 218","address":"Blk 218 Sumang Walk #01-07  Singapore 821217","openingHours":"10:00am - 10:00pm","phone":"","chain":"Each-A-Cup","location":{"type":"Point","coordinates":[103.895020804883,1.4029859177206]}},{"title":"Jurong East - 345","address":"Blk 345 Jurong East Street 31,  #01-15 Singapore 600345","openingHours":"10:00am - 10:00pm","phone":"","chain":"Each-A-Cup","location":{"type":"Point","coordinates":[103.73121914575,1.34551210586752]}},{"title":"Ng Teng Fong Hospital","address":"1 Jurong East St 21 #02-27 Tower A  Singapore 609606","openingHours":"9:30am - 9:30pm","phone":"","chain":"Each-A-Cup","location":{"type":"Point","coordinates":[103.743865452312,1.33553382554428]}},{"title":"NTU","address":"NTU NS3-01-21  50 Nanyang Ave Singapore 639798","openingHours":"9:00am -9:00pm (Monday to Friday) 9:30am - 7:00pm (Saturday to Sunday)","phone":"","chain":"Each-A-Cup","location":{"type":"Point","coordinates":[103.682773793248,1.34382260860561]}},{"title":"Jurong West","address":"Blk 503 Jurong West Ave 1  #01-831 Singapore 640503","openingHours":"10:30am - 10:30pm","phone":"","chain":"Each-A-Cup","location":{"type":"Point","coordinates":[103.71770480961,1.34995541462242]}},{"title":"Bukit Batok - 153","address":"153 Bukit Batok Street 11  #01-284  Singapore 650153","openingHours":"10:30am - 10:00pm","phone":"","chain":"Each-A-Cup","location":{"type":"Point","coordinates":[103.744276460895,1.34747947805081]}},{"title":"Bangkit Road - 257","address":"Blk 257 Bangkit Road #01-57 Singapore 670257","openingHours":"10:00am - 9:00pm","phone":"","chain":"Each-A-Cup","location":{"type":"Point","coordinates":[103.773212348159,1.37850873559017]}},{"title":"Bukit Panjang Integrated Transport Hub ","address":"15 Petir Road #01-61  Singapore 678270","openingHours":"10:30am - 10:00pm","phone":"","chain":"Each-A-Cup","location":{"type":"Point","coordinates":[103.763021718465,1.37830755553893]}},{"title":"Dover MRT","address":"200 Commonwealth Ave West  #02-02  Singapore 138677","openingHours":"8:00am - 10:00pm (Monday to Friday)  10:00am - 8:00pm (Saturday to Sunday)","phone":"","chain":"Each-A-Cup","location":{"type":"Point","coordinates":[103.778656381761,1.31139153717332]}},{"title":"Senja","address":"101 Bukit Panjang Road  #01-03 Singapore 679910","openingHours":"10:00am - 9:30pm","phone":"","chain":"Each-A-Cup","location":{"type":"Point","coordinates":[103.764676250968,1.3816381331934]}},{"title":"ITE College West","address":"1 Choa Chu Kang Grove #05-01  Singapore 688236","openingHours":" 9:00am - 6:00pm","phone":"","chain":"Each-A-Cup","location":{"type":"Point","coordinates":[103.752233735193,1.37490650898361]}},{"title":"Ubi - 306","address":"Blk 306 Ubi Avenue 1  #01-195  Singapore 400306","openingHours":"10:00am - 10:00pm","phone":"","chain":"Each-A-Cup","location":{"type":"Point","coordinates":[103.901930369733,1.32987117232209]}},{"title":"Bedok North - 89","address":"Blk 89 Bedok North Street 4  #01-81  Singapore 460089","openingHours":"10:00am - 10:30pm","phone":"","chain":"Each-A-Cup","location":{"type":"Point","coordinates":[103.938051284737,1.33233468349262]}},{"title":"New Upper Changi Rd - 208","address":"Blk 208 New Upper Changi Road,  #01-697 Singapore 460208","openingHours":"10:00am - 10:00pm","phone":"","chain":"Each-A-Cup","location":{"type":"Point","coordinates":[103.931074627428,1.32569973464369]}},{"title":"Bedok North - 539","address":"Blk 539 Bedok North St3  #01-611  Singapore 460539","openingHours":"10:30am - 10:30pm","phone":"","chain":"Each-A-Cup","location":{"type":"Point","coordinates":[103.925307290709,1.33131386579703]}},{"title":"New Upper Changi Road - 59","address":"59 New Upper Changi Road #01-1254 Singapore 461059","openingHours":"10:00am - 9:30pm","phone":"","chain":"Each-A-Cup","location":{"type":"Point","coordinates":[103.940695612461,1.32405898618809]}},{"title":"Bedok - 353","address":"353 Bedok Road,  Bedok Town Centre, Singapore 469541","openingHours":"10:30am - 10:30pm","phone":"","chain":"Each-A-Cup","location":{"type":"Point","coordinates":[103.947101310278,1.33149077883945]}},{"title":"Bedok Reservoir - 632","address":"Blk 632 Bedok Reservoir Road  #01-874  Singapore 470632","openingHours":"10:00am - 10:00pm","phone":"","chain":"Each-A-Cup","location":{"type":"Point","coordinates":[103.914146202298,1.33205052569764]}},{"title":"Bedok Reservoir - 746","address":"Blk 746 Bedok Reservoir Road,  #01-3011  Singapore 470746","openingHours":"10:00am - 9:00pm","phone":"","chain":"Each-A-Cup","location":{"type":"Point","coordinates":[103.92121574376,1.33728644805587]}},{"title":"Pasir Ris - 443","address":"443 Pasir Ris Drive 6 #01-14  Singapore 510443","openingHours":"10:00am - 10:00pm","phone":"","chain":"Each-A-Cup","location":{"type":"Point","coordinates":[103.957395750219,1.36940860628198]}},{"title":"Changi Village","address":"Blk 1 Changi Village Roadm #01-2048 Singapore 500001","openingHours":"10:00am - 10:00pm","phone":"","chain":"Each-A-Cup","location":{"type":"Point","coordinates":[103.987804503483,1.38854656229022]}},{"title":"West Plaza","address":"735 Pasir Ris Road #01-360 Pasir Ris West Plaza  Singapore 510735","openingHours":"10:00am - 10:00pm","phone":"","chain":"Each-A-Cup","location":{"type":"Point","coordinates":[103.936721740508,1.37984886743124]}},{"title":"E Avenue ","address":"1 Pasir Ris Close #02-K2 Singapore 519599","openingHours":"10:00am - 9:30pm","phone":"","chain":"Each-A-Cup","location":{"type":"Point","coordinates":[103.955689449482,1.3765903645695]}},{"title":"Tampines - 477","address":"Blk 477 Tampines Street 43  #01-174 Singapore 520477","openingHours":"10:30am - 9:30pm","phone":"","chain":"Each-A-Cup","location":{"type":"Point","coordinates":[103.952892124796,1.36092155092893]}},{"title":"Tampines - 802","address":"Blk 802 Tampines Ave 4  #01-19 (B)  Singapore 520802","openingHours":"10:30am - 10:00pm","phone":"","chain":"Each-A-Cup","location":{"type":"Point","coordinates":[103.938034023132,1.34608442398209]}},{"title":"Tampines - 201E","address":"Blk 201E Tampines Street 23 #01-102 Singapore 527201","openingHours":"10:30am - 9:30pm","phone":"","chain":"Each-A-Cup","location":{"type":"Point","coordinates":[103.953858335355,1.35292162536007]}},{"title":"Anchorvale - 308","address":"Blk 308 Anchorvale Road,  #01-06 Singapore 540308","openingHours":"10:00am - 10:00pm","phone":"","chain":"Each-A-Cup","location":{"type":"Point","coordinates":[103.886445107411,1.38925397515392]}},{"title":"Rivervale Mall","address":"11 Rivervale Cresent  #01-22 Singapore 545082","openingHours":"10:00am - 10:30pm","phone":"","chain":"Each-A-Cup","location":{"type":"Point","coordinates":[103.904483668323,1.39250410994833]}},{"title":"Jalan Kayu -256 (Thohirah Restaurant)","address":"256 Jalan Kayu  Singapore 799481","openingHours":"11:00am - 11:00pm","phone":"","chain":"Each-A-Cup","location":{"type":"Point","coordinates":[103.87330955485,1.39806769966279]}}],"LiHO":[{"title":"LiHO Wisma Atria","address":" #B1-03, Wisma Atria, 435 Orchard Road, Singapore 238877","openingHours":" Everyday: 11 AM to 10 PM","phone":" +65 6734 5501","chain":"LiHO","location":{"type":"Point","coordinates":[103.833200970183,1.30370452023703]}},{"title":"LiHO Northpoint City","address":"930 Yishun Avenue 2, #01-17, Northpoint City North Wing, Singapore 769098","openingHours":" Everyday: 11 AM to 10 : 30 PM","phone":"+65 6257 2958","chain":"LiHO","location":{"type":"Point","coordinates":[103.836107231373,1.42924414326245]}},{"title":"LiHO City Square Mall","address":" 180 Kitchener Rd, #02-K11, K13, Singapore 208539","openingHours":" Everyday: 11 AM to 10 PM","phone":" +65 6373 0453","chain":"LiHO","location":{"type":"Point","coordinates":[103.856724057693,1.31135169933195]}},{"title":"LiHO Bugis+","address":"201 Victoria St, #03-29 to 30 Bugis+, Singapore 188067","openingHours":" Everyday: 11 : 30 AM to 10 PM","phone":"+65 6509 7345","chain":"LiHO","location":{"type":"Point","coordinates":[103.853518084567,1.29966016502847]}},{"title":"LiHO Burlington Square","address":" 01-53, Burlington Square, 175 Bencoolen Street, Singapore 189649","openingHours":" Everyday: 10 AM to 9 PM","phone":" +65 6884 8933","chain":"LiHO","location":{"type":"Point","coordinates":[103.852538056665,1.30222951964708]}},{"title":"LiHO One Raffles Place","address":"1 Raffles Pl, B1-10, Singapore 048616","openingHours":" Monday to Friday: 11 AM to 8 PM","phone":"Saturday & Sunday: Closed","chain":"LiHO","location":{"type":"Point","coordinates":[103.851050382307,1.28424656418639]}},{"title":"LiHO myVillage","address":"1 Maju Ave, #01-04, Singapore 556679","openingHours":" Everyday: 11 AM to 10 PM","phone":" +65 6509 0314","chain":"LiHO","location":{"type":"Point","coordinates":[103.865101220515,1.3652806057289]}},{"title":"LiHO Funan Mall","address":"107 North Bridge Rd, B2-K04, Singapore 179105","openingHours":" Everyday: 11 AM to 10 PM","phone":"+65 6573 3109","chain":"LiHO","location":{"type":"Point","coordinates":[103.849989790085,1.29134759697794]}},{"title":"LiHO Ang Mo Kio HUB","address":" 53 Ang Mo Kio Avenue 3, #B2-57, AMK Hub, 53 Ang Mo Kio Ave 3, #02-15/16, Singapore 569933","openingHours":" Everyday: 11 AM to 10 PM","phone":" +65 6219 3575","chain":"LiHO","location":{"type":"Point","coordinates":[103.848693181185,1.36923561405404]}},{"title":"LiHO Far East Plaza","address":"01-16F, 14 Scotts Rd Far East Plaza, Singapore 228213","openingHours":" Everyday: 11 AM to 9 : 30 PM","phone":" +65 6334 5465","chain":"LiHO","location":{"type":"Point","coordinates":[103.833818438639,1.30730468891062]}},{"title":"LiHO Queensway Shopping Centre","address":" 1 Queensway, #01-K58 Shopping Centre, Singapore 149053","openingHours":" Everyday: 11 AM to 9 PM","phone":" +65 6254 5051","chain":"LiHO","location":{"type":"Point","coordinates":[103.803391140455,1.28761792586115]}},{"title":"LiHO Compass One","address":"1 Sengkang Square, #B1-43, Singapore 545078","openingHours":" Everyday: 11 AM to 10 : 30 PM","phone":"+65 6386 4568","chain":"LiHO","location":{"type":"Point","coordinates":[103.895063884132,1.3920543053799]}},{"title":"LiHO Dhoby Ghaut MRT Station","address":" 60 Orchard Rd, B2-06 Dhoby Ghaut MRT Station, Singapore 238889","openingHours":" Everyday: 11 AM to 10 PM","phone":" +65 6568 0161","chain":"LiHO","location":{"type":"Point","coordinates":[103.845539676638,1.29946429130549]}},{"title":"LiHO Jurong Point","address":"63 Jurong West Central 3, #03-89E, Singapore 648331","openingHours":" Everyday: 11 AM to 10 : 30 PM","phone":"+65 6252 2326","chain":"LiHO","location":{"type":"Point","coordinates":[103.705350996191,1.33931504032005]}},{"title":"LiHO Thomson Plaza","address":" 301 Upper Thomson Rd, #01-K11 Thomson Plaza, Singapore 574408","openingHours":" Everyday: 11 AM to 10 PM","phone":" +65 6963 3137","chain":"LiHO","location":{"type":"Point","coordinates":[103.830924910072,1.35479436177561]}},{"title":"West Coast Plaza","address":"154 West Coast Rd, Singapore 127371","openingHours":" Everyday: 11 AM to 10 PM","phone":" +65 6873 0908","chain":"LiHO","location":{"type":"Point","coordinates":[103.76610375397,1.30358622534992]}},{"title":"LiHO Square 2","address":" 10 Sinaran Dr, #01-172 Square 2, Singapore 307506","openingHours":" Everyday: 11 AM to 9 PM","phone":" +65 6397 6816","chain":"LiHO","location":{"type":"Point","coordinates":[103.843892122244,1.32042967079118]}},{"title":"LiHO Asia Square Tower 2","address":"12 Marina View, #02-08, Singapore 018961","openingHours":" Mon to Fri: 11 AM to 7 PM & Sat, Sun: Closed","phone":"+65 6844 9928","chain":"LiHO","location":{"type":"Point","coordinates":[103.850812513482,1.27822949964567]}},{"title":"Bukit Merah Central","address":" 01-3661, Blk 165, Bukit Merah Central, Singapore 150165","openingHours":" Temporarily Closed","phone":" +65 6278 8913","chain":"LiHO","location":{"type":"Point","coordinates":[103.816692798132,1.28305589307332]}},{"title":"Bedok Mall","address":"311 New Upper Changi Rd, #B2-K16, Singapore 467360","openingHours":"Everyday: 10 AM to 10 PM","phone":"+65 6702 4025","chain":"LiHO","location":{"type":"Point","coordinates":[103.929182068033,1.32479361283131]}},{"title":"LiHO Causeway Point","address":" B1-K30, 1 Woodlands Square, Singapore 738099","openingHours":" Everyday: 11 AM to 10 PM","phone":" +65 6446 9003","chain":"LiHO","location":{"type":"Point","coordinates":[103.785795816344,1.43590007901468]}},{"title":"Bukit Panjang Plaza","address":"1 Jelebu Road, Bukit Panjang Plaza #01-21, Singapore 677743","openingHours":"Everyday: 10 AM to 10 : 30 PM","phone":"+65 6769 0154","chain":"LiHO","location":{"type":"Point","coordinates":[103.764459887796,1.37989494369864]}},{"title":"LiHO The Star Vista","address":" 1 Vista Exchange Green, B1-39 The Star Vista, Singapore 138617","openingHours":" Everyday: 11 AM to 10 PM","phone":" +65 6694 4033","chain":"LiHO","location":{"type":"Point","coordinates":[103.788462732266,1.30681500712523]}},{"title":"LiHO Jem","address":"50 Jurong Gateway Rd, #B1-30 Jem, Singapore 608549","openingHours":"Everyday: 11 AM to 10 PM","phone":"+65 6734 8068","chain":"LiHO","location":{"type":"Point","coordinates":[103.743262234833,1.3325523295069]}},{"title":"LiHO Eastpoint Mall","address":" 3 Simei Street 6, #01-K1, Eastpoint Mall, Singapore 528833","openingHours":" Everyday: 11 AM to 10 PM","phone":" +65 6636 0893","chain":"LiHO","location":{"type":"Point","coordinates":[103.953050756306,1.34269199750599]}},{"title":"Sembawang Shopping Centre","address":"604 Sembawang Road, #B1-17, Sembawang Shopping Centre, Singapore 758459","openingHours":"Everyday: 11 AM to 10 PM","phone":"+65 6380 2123","chain":"LiHO","location":{"type":"Point","coordinates":[103.824970378482,1.44185307934021]}},{"title":"LiHO Our Tampines Hub","address":" 1 Tampines Walk, #01-K1 Our Tampines Hub, Singapore 528523","openingHours":" Everyday: 11 AM to 10 PM","phone":" +65 6385 4622","chain":"LiHO","location":{"type":"Point","coordinates":[103.940598001519,1.35218046898785]}},{"title":"LiHO East Village","address":"430 Upper Changi Rd, #01-12 East Village, Singapore 487048","openingHours":"Everyday: 11 AM to 10 PM","phone":"+65 6373 9230","chain":"LiHO","location":{"type":"Point","coordinates":[103.946201241591,1.3317758150305]}},{"title":"LiHO Lot One","address":" 21 Choa Chu Kang Ave 4, #B1 – K30, Singapore 689812","openingHours":" Everyday: 10 : 30 AM to 10 : 30 PM","phone":" +65 6464 8896","chain":"LiHO","location":{"type":"Point","coordinates":[103.744950378814,1.38506836476439]}},{"title":"LiHO Sun Plaza","address":"30 Sembawang Dr, #01-19 Sun Plaza, Singapore 757713","openingHours":" Everyday: 11 AM to 10 : 30 PM","phone":"+65 6600 4989","chain":"LiHO","location":{"type":"Point","coordinates":[103.819530140823,1.44820036592783]}},{"title":"LiHO Zhongshan Mall","address":" 20 Ah Hood Rd, #01-09 Zhong Shan Mall, Singapore 329984","openingHours":" Everyday: 11 AM to 10 PM","phone":" +65 6339 2825","chain":"LiHO","location":{"type":"Point","coordinates":[103.846490871841,1.32702991607724]}},{"title":"LiHO Parkway Centre","address":"1 Marine Parade Central, #01-03, Singapore 449408","openingHours":"Opening & Closing Time: Everyday: 11 AM to 10 PM","phone":"+65 6611 4225","chain":"LiHO","location":{"type":"Point","coordinates":[103.905996468402,1.30188732078192]}},{"title":"LiHO Toa Payoh Central","address":" 01-536, Toa Payoh Central, 190 Lorong 6, Singapore 310190","openingHours":" Everyday: 11 AM to 10 : 30 PM","phone":" +65 6352 3822","chain":"LiHO","location":{"type":"Point","coordinates":[103.847965420815,1.33297562373531]}},{"title":"LiHO Woodlands Galaxy CC","address":"31 Woodlands Ave 6, #01-03 Galaxy Community Centre, Singapore 738991","openingHours":" Everyday: 10 : 30 AM to 10 : 30 PM","phone":"+65 6937 0486","chain":"LiHO","location":{"type":"Point","coordinates":[103.802657551717,1.43900803125047]}},{"title":"LiHO The Woodgrove","address":" 30 Woodlands Ave 1, #01-07 The Woodgrove, Singapore 739065","openingHours":" Everyday: 11 AM to 11 PM","phone":" +65 6954 1075","chain":"LiHO","location":{"type":"Point","coordinates":[103.781292115087,1.42938474074212]}},{"title":"LiHO Woodlands Mart w / seating","address":"Blk 768 Woodlands Ave 6, #01-12, Singapore 730768","openingHours":"Everyday: 11 AM to 10 : 30 PM","phone":"+65 6573 9132","chain":"LiHO","location":{"type":"Point","coordinates":[103.798162285805,1.44564787003157]}},{"title":"LiHO Heartland Mall Kovan","address":" Hougang St 21, #02-49 Heartland Mall, Blk 205, Singapore 530205","openingHours":" Everyday: 11 AM to 10 PM","phone":" +65 6241 1663","chain":"LiHO","location":{"type":"Point","coordinates":[103.885167372726,1.35954177325561]}},{"title":"LiHO Bukit Timah Plaza","address":"1 Jalan Anak Bukit, #B2-07A, Bukit Timah Plaza, Singapore 588996","openingHours":" Everyday: 11 AM to 9 : 30 PM","phone":"+65 6719 1185","chain":"LiHO","location":{"type":"Point","coordinates":[103.778585430975,1.3386316527745]}},{"title":"LiHO Seletar Mall","address":" 33 Sengkang West Ave, #B1-27/28, Singapore 797653","openingHours":" Everyday: 11 AM to 10 PM","phone":" +65 6282 6341","chain":"LiHO","location":{"type":"Point","coordinates":[103.876213231014,1.39131549124709]}},{"title":"Raffles City Shopping Centre","address":"252 North Bridge Rd #B1-67 Raffles City Shopping Centre, Singapore 179103","openingHours":"Everyday: 11 AM to 10 PM","phone":"+65 6261 6192","chain":"LiHO","location":{"type":"Point","coordinates":[103.852768324281,1.29376028134073]}},{"title":"Pasir Ris West Plaza","address":" 735 Pasir Ris Street 72, #01-308, Singapore 510735","openingHours":" Everyday: 11 AM to 10 PM","phone":" +65 6373 0451","chain":"LiHO","location":{"type":"Point","coordinates":[103.936721740508,1.37984886743124]}},{"title":"LiHO White Sands","address":"1 Pasir Ris Central St 3, #01-12A, Singapore 518457","openingHours":"Everyday: 11 AM to 10 PM","phone":"+65 6585 4812","chain":"LiHO","location":{"type":"Point","coordinates":[103.949733905672,1.37228761596577]}},{"title":"LiHO Yew Tee Point","address":" 21 Choa Chu Kang North 6 #B1-43, Yew Tee Point, Singapore 689578","openingHours":" Everyday: 11 AM to 10 PM","phone":" +65 6763 0064","chain":"LiHO","location":{"type":"Point","coordinates":[103.746598000147,1.39708432396576]}},{"title":"LiHO VivoCity","address":"1 HarbourFront Walk, #02-95 VivoCity, Singapore 098585","openingHours":"Everyday: 11 AM to 10 PM","phone":"+65 6205 9130","chain":"LiHO","location":{"type":"Point","coordinates":[103.822476140505,1.26434458658544]}},{"title":"LiHO Clementi Mall","address":" 3155 Commonwealth Ave W, #B1-K6 Clementi Mall, Singapore 129588","openingHours":" Everyday: 10 AM to 10 PM","phone":" +65 6262 2324","chain":"LiHO","location":{"type":"Point","coordinates":[103.764596439304,1.31555354277949]}},{"title":"LiHO Jubilee Square","address":"61 Ang Mo Kio Ave 8, #01-14 Jubilee Square, Singapore 569814","openingHours":"Everyday: 11 AM to 10 PM","phone":"+65 6456 6476","chain":"LiHO","location":{"type":"Point","coordinates":[103.847775723803,1.37178551879642]}},{"title":"LiHO Rivervale Plaza","address":" 118 Rivervale Dr, #01-04 Rivervale Plaza, Singapore 540118","openingHours":" Everyday: 11 AM to 10 PM","phone":" +65 6241 4080","chain":"LiHO","location":{"type":"Point","coordinates":[103.901988424927,1.38550420775531]}},{"title":"LiHO Alexandra Retail Centre","address":"460 Alexandra Rd, #01-10 Alexandra Retail Centre, Singapore 119963","openingHours":"Everyday: 11 AM to 9 PM","phone":"+65 6272 0211","chain":"LiHO","location":{"type":"Point","coordinates":[103.801399416665,1.27414893629254]}},{"title":"LiHO Bukit Gombak MRT Station","address":" 802 Bukit Batok West Ave. 5, #01-01, Singapore 659083","openingHours":" Everyday: 11 AM to 10 PM","phone":" +65 6373 0384","chain":"LiHO","location":{"type":"Point","coordinates":[103.751912957251,1.35873020505421]}},{"title":"Greenwich V","address":"1 Seletar Rd, #01-20 Greenwich V, Singapore 807011","openingHours":"Everyday: 11 AM to 9 PM","phone":"+65 6483 1487","chain":"LiHO","location":{"type":"Point","coordinates":[103.869348049282,1.38736769500018]}},{"title":"LiHO Tampines Mall","address":" 4 Tampines Central 5, #B1-K5, Singapore 529510","openingHours":" Everyday: 11 AM to 10 PM","phone":" +65 6783 9378","chain":"LiHO","location":{"type":"Point","coordinates":[103.944785968039,1.35259361362837]}},{"title":"Queensway Shopping Centre","address":"1 Queensway, #01-K58 Shopping Centre, Singapore 149053","openingHours":"Everyday: 11 AM to 9 PM","phone":"+65 6254 5051","chain":"LiHO","location":{"type":"Point","coordinates":[103.803391140455,1.28761792586115]}},{"title":"Gek Poh Shopping Centre","address":" 762 Jurong West Street 75, #01-322, Singapore 640762","openingHours":" Everyday: 11 AM to 10 PM","phone":" +65 6373 0873","chain":"LiHO","location":{"type":"Point","coordinates":[103.697739629738,1.3487416466288]}},{"title":"LiHO Sunshine Place","address":"475 Choa Chu Kang Ave 3, #01-29, Singapore 680475","openingHours":"Everyday: 11 AM to 10 : 30 PM","phone":"+65 6573 7134","chain":"LiHO","location":{"type":"Point","coordinates":[103.739015486021,1.37789727709418]}},{"title":"LiHO Waterway Point","address":" B2-K10, Waterway Point, 83 Punggol Central, Singapore 828761","openingHours":" Everyday: 11 AM to 10 : 30 PM","phone":" +65 6385 2064","chain":"LiHO","location":{"type":"Point","coordinates":[103.902188891645,1.4064128346795]}},{"title":"LiHO Junction 10","address":"1 Woodlands Rd, #01-26 Junction 10, Singapore 677899","openingHours":"Everyday: 11 AM to 10 PM","phone":"+65 6465 2130","chain":"LiHO","location":{"type":"Point","coordinates":[103.76041930548,1.38018163022688]}},{"title":"LiHO Loyang Point","address":" 258 Pasir Ris Street 21, #01-17 Loyang Point, Singapore 510258","openingHours":" Everyday: 11 AM to 10 PM","phone":" +65 6611 9031","chain":"LiHO","location":{"type":"Point","coordinates":[103.964635610477,1.36706634197242]}},{"title":"LiHO Boon Lay Shopping Centre","address":"221 Boon Lay Pl, #01-108 Shopping Centre, Singapore 640221","openingHours":"Everyday: 11 AM to 9 PM","phone":"+65 6203 2572","chain":"LiHO","location":{"type":"Point","coordinates":[103.712472819666,1.34637376407877]}},{"title":"Greenridge Shopping Centre","address":" 524A, #02-10 Jelapang Rd, Greenridge Shopping Centre, Singapore 671524","openingHours":" Everyday: 10 : 30 AM to 10 PM","phone":" +65 6573 6921","chain":"LiHO","location":{"type":"Point","coordinates":[103.766170532051,1.38529556252963]}},{"title":"LiHO IMM","address":"01-K12 IMM, 2 Jurong East Street 21, Singapore 609601","openingHours":"Everyday: 11 AM to 10 PM","phone":"+65 6897 2383","chain":"LiHO","location":{"type":"Point","coordinates":[103.746877132868,1.33491758755437]}},{"title":"LiHO Eunos MRT","address":" 30 Eunos Cres, #01-05, Singapore 409423","openingHours":" Everyday: 11 AM to 10 PM","phone":" +65 6748 9383","chain":"LiHO","location":{"type":"Point","coordinates":[103.903645566693,1.31965992885645]}},{"title":"LiHO 18 Tai Seng","address":"18 Tai Seng St, #B1-11, 18 Tai Seng, Singapore 539775","openingHours":"Everyday: 10 : 30 AM to 9 : 30 PM","phone":"+65 6384 1252","chain":"LiHO","location":{"type":"Point","coordinates":[103.888825620348,1.33631557522577]}},{"title":"Changi City Point","address":" 5 Changi Business Park Central 1, #B1 – 41, Singapore 486038","openingHours":" Everyday: 11 AM to 10 PM","phone":" +65 6604 8489","chain":"LiHO","location":{"type":"Point","coordinates":[103.962946043413,1.33408363820793]}},{"title":"LiHO Redhill MRT","address":"920 Tiong Bahru Rd, #01-08, Singapore 158792","openingHours":"Everyday: 10 : 30 AM to 10 : 30 PM","phone":"+65 6265 3712","chain":"LiHO","location":{"type":"Point","coordinates":[103.817058256205,1.28933202700544]}},{"title":"LiHO NTU HSS","address":" School of Humanities and Social Sciences, Level 1 #01-11, 14 Nanyang Dr, Nanyang Technological University, Singapore 637332","openingHours":" Mon to Fri: 9 AM to 8 PM & Sat, Sun: Closed","phone":" +65 6316 9982","chain":"LiHO","location":null},{"title":"LiHO E!Hub","address":"1 Pasir Ris Cl, #02-101 E! Hub@Downtown East, Singapore 519599","openingHours":"Everyday: 11 AM to 10 PM","phone":"+65 6719 6018","chain":"LiHO","location":{"type":"Point","coordinates":[103.955689449482,1.3765903645695]}},{"title":"LiHO Junction 8","address":" 9 Bishan Pl, #02-18A, Singapore 579837","openingHours":" Everyday: 11 AM to 10 PM","phone":" +65 6259 9938","chain":"LiHO","location":{"type":"Point","coordinates":[103.848515664081,1.3501820033849]}},{"title":"The Poiz Centre","address":"51 Upper Serangoon Rd, #01-16 The Poiz Centre, Singapore 347697","openingHours":"Everyday: 11 AM to 10 PM","phone":"+65 6719 6038","chain":"LiHO","location":{"type":"Point","coordinates":[103.868150095119,1.33135550782584]}},{"title":"Suntec City L3 (w/ seating)","address":" 3 Temasek Blvd, #03-379, Singapore 038983","openingHours":" Everyday: 11 AM to 10 PM","phone":" +65 6732 0962","chain":"LiHO","location":{"type":"Point","coordinates":[103.858552585838,1.29571152468885]}},{"title":"LiHO Bukit Batok MRT","address":"10 Bukit Batok Central Rd, #01-02 MRT, Singapore 659958","openingHours":"Everyday: 11 AM to 9 PM","phone":"","chain":"LiHO","location":{"type":"Point","coordinates":[103.749334517338,1.3487108105756]}},{"title":"Khoo Teck Puat Hospital","address":" 90 Yishun Central, #01-07A KTPHed.seniors, Singapore 768828","openingHours":" Everyday: 9 AM to 8 PM","phone":" +65 6360 3225","chain":"LiHO","location":{"type":"Point","coordinates":[103.838408103708,1.42386458686306]}},{"title":"LiHO Hougang Mall","address":"90 Hougang Ave 10, #02-08, Singapore 538766","openingHours":"Everyday: 11 AM to 10 PM","phone":"+65 6568 0035","chain":"LiHO","location":{"type":"Point","coordinates":[103.893788141349,1.37248308734511]}},{"title":"LiHO Bendemeer Shopping Centre","address":" 25 Bendemeer Rd, #01-583, Singapore 330025","openingHours":" Everyday: 11 AM to 10 : 30 PM","phone":" +65 6963 0042","chain":"LiHO","location":{"type":"Point","coordinates":[103.862696182731,1.31868506718223]}},{"title":"Harbourfront Centre","address":"1 Maritime Square, #01-K9 Harbourfront Centre, Singapore 099253","openingHours":"Everyday: 11 AM to 9 PM","phone":"+65 6250 5866","chain":"LiHO","location":{"type":"Point","coordinates":[103.820315193363,1.26447844519217]}},{"title":"LiHO Tiong Bahru Plaza","address":" 302 Tiong Bahru Rd, #B1 – k9, Siewiersk 168732","openingHours":" Everyday: 11 AM to 10 PM","phone":" +65 6264 7126","chain":"LiHO","location":{"type":"Point","coordinates":[103.827550771424,1.28633177192832]}},{"title":"LiHO V Hotel Lavender","address":"70 Jellicoe Rd, #01-21, V Hotel Lavender, Singapore 208767","openingHours":"Everyday: 11 AM to 10 PM","phone":"+65 6291 0296","chain":"LiHO","location":{"type":"Point","coordinates":[103.862736376488,1.3078301007512]}},{"title":"LiHO Hougang 1","address":" 1 Hougang Street 91, #01-37, Singapore 538692","openingHours":" Everyday: 11 AM to 10 PM","phone":" +65 6387 8995","chain":"LiHO","location":{"type":"Point","coordinates":[103.879483534695,1.37561464129476]}},{"title":"LiHO NEX","address":"23 Serangoon Central, #04-K22, Singapore 556083","openingHours":"Everyday: 11 AM to 10 : 30 PM","phone":"+65 6634 9008","chain":"LiHO","location":{"type":"Point","coordinates":[103.872590477492,1.35064579494756]}},{"title":"LiHO Nanyang Community Club","address":" 60 Jurong West Street 91, #01-04, Singapore 649040","openingHours":" Everyday: 11 AM to 10 PM","phone":" +65 6360 3384","chain":"LiHO","location":{"type":"Point","coordinates":[103.692435163135,1.34242828944107]}},{"title":"LIHO T3","address":" 65 Airport Blvd., #01-23 Arrival Meeting Hall, Terminal 3, Singapore 819664","openingHours":" Everyday: 11 AM to 9 PM","phone":" +65 6702 4051","chain":"LiHO","location":{"type":"Point","coordinates":[103.98796702598,1.35872080296023]}}]}